[{"Name":"Massachusetts Institute of Technology (MIT) ","Latitude":42.3601,"Longitude":-71.0942,"Cluster":3,"Rank":1},{"Name":"Harvard University","Latitude":42.3744,"Longitude":-71.1182,"Cluster":3,"Rank":2},{"Name":"Stanford University","Latitude":37.4277,"Longitude":-122.1701,"Cluster":4,"Rank":3},{"Name":"University of California, Berkeley (UCB)","Latitude":37.8702,"Longitude":-122.2595,"Cluster":4,"Rank":4},{"Name":"University of Chicago","Latitude":41.7904,"Longitude":-87.6004,"Cluster":5,"Rank":5},{"Name":"University of Pennsylvania","Latitude":39.9522,"Longitude":-75.1932,"Cluster":3,"Rank":6},{"Name":"Cornell University","Latitude":42.4534,"Longitude":-76.4735,"Cluster":3,"Rank":7},{"Name":"California Institute of Technology (Caltech)","Latitude":34.1377,"Longitude":-118.1253,"Cluster":4,"Rank":8},{"Name":"Yale University","Latitude":41.3163,"Longitude":-72.9223,"Cluster":3,"Rank":9},{"Name":"Princeton University","Latitude":40.3431,"Longitude":-74.6551,"Cluster":3,"Rank":10},{"Name":"Columbia University","Latitude":40.8075,"Longitude":-73.9626,"Cluster":3,"Rank":11},{"Name":"Johns Hopkins University","Latitude":39.3299,"Longitude":-76.6205,"Cluster":3,"Rank":12},{"Name":"University of California, Los Angeles (UCLA)","Latitude":34.0699,"Longitude":-118.4438,"Cluster":4,"Rank":13},{"Name":"University of Michigan-Ann Arbor","Latitude":42.2771,"Longitude":-83.7382,"Cluster":5,"Rank":14},{"Name":"New York University (NYU)","Latitude":40.7295,"Longitude":-73.9965,"Cluster":3,"Rank":15},{"Name":"Northwestern University","Latitude":42.0565,"Longitude":-87.6753,"Cluster":5,"Rank":16},{"Name":"Carnegie Mellon University","Latitude":40.4432,"Longitude":-79.9428,"Cluster":3,"Rank":17},{"Name":"Duke University","Latitude":36.0014,"Longitude":-78.9382,"Cluster":2,"Rank":18},{"Name":"University of Texas at Austin","Latitude":30.285,"Longitude":-97.7335,"Cluster":1,"Rank":19},{"Name":"University of California, San Diego (UCSD)","Latitude":32.8801,"Longitude":-117.234,"Cluster":4,"Rank":20},{"Name":"University of Washington","Latitude":47.6546,"Longitude":-122.3075,"Cluster":4,"Rank":21},{"Name":"University of Illinois at Urbana-Champaign","Latitude":40.102,"Longitude":-88.2272,"Cluster":5,"Rank":22},{"Name":"Brown University","Latitude":41.8268,"Longitude":-71.4025,"Cluster":3,"Rank":23},{"Name":"Pennsylvania State University","Latitude":40.7982,"Longitude":-77.8599,"Cluster":3,"Rank":24},{"Name":"Boston University","Latitude":42.3505,"Longitude":-71.1054,"Cluster":3,"Rank":25},{"Name":"Georgia Institute of Technology","Latitude":33.7756,"Longitude":-84.3963,"Cluster":2,"Rank":26},{"Name":"Purdue University","Latitude":40.4237,"Longitude":-86.9212,"Cluster":5,"Rank":27},{"Name":"University of Wisconsin-Madison","Latitude":43.0766,"Longitude":-89.4125,"Cluster":5,"Rank":28},{"Name":"University of Southern California","Latitude":34.0224,"Longitude":-118.2851,"Cluster":4,"Rank":29},{"Name":"University of California, Davis","Latitude":38.5382,"Longitude":-121.7617,"Cluster":4,"Rank":30},{"Name":"University of North Carolina at Chapel Hill","Latitude":35.9049,"Longitude":-79.0469,"Cluster":2,"Rank":31},{"Name":"Texas A&M University","Latitude":31.9686,"Longitude":-99.9018,"Cluster":1,"Rank":32},{"Name":"Michigan State University","Latitude":42.7251,"Longitude":-84.4791,"Cluster":5,"Rank":33},{"Name":"Rice University","Latitude":29.7174,"Longitude":-95.4018,"Cluster":1,"Rank":34},{"Name":"The Ohio State University","Latitude":40.0067,"Longitude":-83.0305,"Cluster":5,"Rank":35},{"Name":"Washington University in St. Louis","Latitude":38.6488,"Longitude":-90.3108,"Cluster":5,"Rank":36},{"Name":"University of California, Santa Barbara (UCSB)","Latitude":34.414,"Longitude":-119.8489,"Cluster":4,"Rank":37},{"Name":"Emory University","Latitude":33.7971,"Longitude":-84.3222,"Cluster":2,"Rank":38},{"Name":"University of Florida","Latitude":29.6465,"Longitude":-82.3533,"Cluster":2,"Rank":39},{"Name":"University of Maryland, College Park","Latitude":38.9869,"Longitude":-76.9426,"Cluster":3,"Rank":40},{"Name":"Arizona State University","Latitude":33.4169,"Longitude":-111.9363,"Cluster":4,"Rank":41},{"Name":"University of Minnesota Twin Cities","Latitude":44.974,"Longitude":-93.2277,"Cluster":5,"Rank":42},{"Name":"University of Pittsburgh","Latitude":40.444,"Longitude":-79.9605,"Cluster":3,"Rank":43},{"Name":"University of Rochester","Latitude":43.1306,"Longitude":-77.626,"Cluster":3,"Rank":44},{"Name":"Dartmouth College","Latitude":43.7044,"Longitude":-72.2887,"Cluster":3,"Rank":45},{"Name":"University of Massachusetts Amherst","Latitude":42.3868,"Longitude":-72.5301,"Cluster":3,"Rank":46},{"Name":"Case Western Reserve University","Latitude":41.5043,"Longitude":-81.6084,"Cluster":5,"Rank":47},{"Name":"University of Virginia","Latitude":38.0336,"Longitude":-78.508,"Cluster":3,"Rank":48},{"Name":"Vanderbilt University","Latitude":36.1447,"Longitude":-86.8027,"Cluster":5,"Rank":49},{"Name":"University of Colorado Boulder","Latitude":40.0073,"Longitude":-105.266,"Cluster":1,"Rank":50},{"Name":"University of California, Irvine","Latitude":33.6424,"Longitude":-117.8417,"Cluster":4,"Rank":51},{"Name":"North Carolina State University","Latitude":35.7851,"Longitude":-78.6813,"Cluster":2,"Rank":52},{"Name":"University of Miami","Latitude":25.7174,"Longitude":-80.2781,"Cluster":2,"Rank":53},{"Name":"The University of Arizona","Latitude":32.2319,"Longitude":-110.9535,"Cluster":1,"Rank":54},{"Name":"Georgetown University","Latitude":38.9076,"Longitude":-77.0723,"Cluster":3,"Rank":55},{"Name":"Rutgers University–New Brunswick","Latitude":40.5008,"Longitude":-74.4474,"Cluster":3,"Rank":56},{"Name":"Virginia Polytechnic Institute and State University","Latitude":37.2284,"Longitude":-80.4234,"Cluster":2,"Rank":57},{"Name":"University of Notre Dame","Latitude":41.7051,"Longitude":-86.2355,"Cluster":5,"Rank":58},{"Name":"Indiana University Bloomington","Latitude":39.1682,"Longitude":-86.523,"Cluster":5,"Rank":59},{"Name":"University of Illinois at Chicago (UIC)","Latitude":41.8686,"Longitude":-87.6484,"Cluster":5,"Rank":60},{"Name":"University of California, Santa Cruz","Latitude":36.9905,"Longitude":-122.0584,"Cluster":4,"Rank":61},{"Name":"George Washington University","Latitude":38.8997,"Longitude":-77.0486,"Cluster":3,"Rank":62},{"Name":"Yeshiva University","Latitude":40.8506,"Longitude":-73.9297,"Cluster":3,"Rank":63},{"Name":"Northeastern University","Latitude":42.3399,"Longitude":-71.0899,"Cluster":3,"Rank":64},{"Name":"Tufts University","Latitude":42.4085,"Longitude":-71.1183,"Cluster":3,"Rank":65},{"Name":"University of Hawaiʻi at Mānoa","Latitude":21.2998,"Longitude":-157.8148,"Cluster":4,"Rank":66},{"Name":"Stony Brook University, State University of New York","Latitude":40.9081,"Longitude":-73.1204,"Cluster":3,"Rank":67},{"Name":"Iowa State University","Latitude":42.0267,"Longitude":-93.6465,"Cluster":5,"Rank":68},{"Name":"University of California, Riverside","Latitude":33.9737,"Longitude":-117.3281,"Cluster":4,"Rank":69},{"Name":"Colorado State University","Latitude":40.5729,"Longitude":-105.0848,"Cluster":1,"Rank":70},{"Name":"University of Kansas","Latitude":38.9543,"Longitude":-95.2558,"Cluster":1,"Rank":71},{"Name":"Washington State University","Latitude":46.7295,"Longitude":-117.1803,"Cluster":4,"Rank":72},{"Name":"University of Utah","Latitude":40.7649,"Longitude":-111.8421,"Cluster":4,"Rank":73},{"Name":"University of Connecticut","Latitude":41.8077,"Longitude":-72.254,"Cluster":3,"Rank":74},{"Name":"The University of Tennessee, Knoxville","Latitude":35.9544,"Longitude":-83.9295,"Cluster":2,"Rank":75},{"Name":"Florida State University","Latitude":30.4419,"Longitude":-84.2985,"Cluster":2,"Rank":76},{"Name":"Colorado School of Mines","Latitude":39.751,"Longitude":-105.2226,"Cluster":1,"Rank":77},{"Name":"Illinois Institute of Technology","Latitude":41.8349,"Longitude":-87.627,"Cluster":5,"Rank":78},{"Name":"Missouri University of Science and Technology","Latitude":37.9537,"Longitude":-91.7756,"Cluster":5,"Rank":79},{"Name":"University at Buffalo SUNY","Latitude":43.0018,"Longitude":-78.7895,"Cluster":3,"Rank":80},{"Name":"University of Iowa","Latitude":41.6627,"Longitude":-91.555,"Cluster":5,"Rank":81},{"Name":"Rensselaer Polytechnic Institute","Latitude":42.7298,"Longitude":-73.6789,"Cluster":3,"Rank":82},{"Name":"University of Delaware","Latitude":39.678,"Longitude":-75.7506,"Cluster":3,"Rank":83},{"Name":"Oregon State University","Latitude":44.5638,"Longitude":-123.2794,"Cluster":4,"Rank":84},{"Name":"The University of Georgia","Latitude":33.9567,"Longitude":-83.3752,"Cluster":2,"Rank":85},{"Name":"University of Texas Dallas","Latitude":32.9857,"Longitude":-96.7502,"Cluster":1,"Rank":86},{"Name":"City University of New York","Latitude":40.7128,"Longitude":-74.006,"Cluster":3,"Rank":87},{"Name":"Lehigh University","Latitude":40.6054,"Longitude":-75.3773,"Cluster":3,"Rank":88},{"Name":"University of Nebraska - Lincoln","Latitude":40.8137,"Longitude":-96.7026,"Cluster":1,"Rank":89},{"Name":"Florida International University","Latitude":25.7562,"Longitude":-80.3755,"Cluster":2,"Rank":90},{"Name":"University of South Florida","Latitude":28.0587,"Longitude":-82.4139,"Cluster":2,"Rank":91},{"Name":"University of South Carolina","Latitude":33.9938,"Longitude":-81.0299,"Cluster":2,"Rank":92},{"Name":"University of Missouri, Columbia","Latitude":38.9404,"Longitude":-92.3277,"Cluster":5,"Rank":93},{"Name":"University of Central Florida","Latitude":28.6024,"Longitude":-81.2001,"Cluster":2,"Rank":94},{"Name":"Tulane University","Latitude":29.9407,"Longitude":-90.1203,"Cluster":2,"Rank":95},{"Name":"Drexel University","Latitude":39.9566,"Longitude":-75.1899,"Cluster":3,"Rank":96},{"Name":"Stevens Institute of Technology","Latitude":40.7448,"Longitude":-74.0256,"Cluster":3,"Rank":97},{"Name":"Boston College","Latitude":42.3355,"Longitude":-71.1685,"Cluster":3,"Rank":98},{"Name":"University of New Mexico","Latitude":35.0843,"Longitude":-106.6198,"Cluster":1,"Rank":99},{"Name":"New Jersey Institute of Technology (NJIT)","Latitude":40.7424,"Longitude":-74.1784,"Cluster":3,"Rank":100},{"Name":"The New School","Latitude":40.7355,"Longitude":-73.9971,"Cluster":3,"Rank":101},{"Name":"University of Houston","Latitude":29.7199,"Longitude":-95.3422,"Cluster":1,"Rank":102},{"Name":"University of Oklahoma","Latitude":35.1987,"Longitude":-97.4449,"Cluster":1,"Rank":103},{"Name":"Brandeis University","Latitude":42.3654,"Longitude":-71.2586,"Cluster":3,"Rank":104},{"Name":"University of Kentucky","Latitude":38.0307,"Longitude":-84.504,"Cluster":5,"Rank":105},{"Name":"University of Cincinnati","Latitude":39.1329,"Longitude":-84.515,"Cluster":5,"Rank":106},{"Name":"Wake Forest University","Latitude":36.1355,"Longitude":-80.2793,"Cluster":2,"Rank":107},{"Name":"University of Maryland, Baltimore County","Latitude":39.2554,"Longitude":-76.7107,"Cluster":3,"Rank":108},{"Name":"Temple University","Latitude":39.9812,"Longitude":-75.1554,"Cluster":3,"Rank":109},{"Name":"University of Colorado, Denver ","Latitude":39.7464,"Longitude":-105.0023,"Cluster":1,"Rank":110},{"Name":"University of Oregon","Latitude":44.0448,"Longitude":-123.0726,"Cluster":4,"Rank":111},{"Name":"Swarthmore College","Latitude":39.9038,"Longitude":-75.3527,"Cluster":3,"Rank":112},{"Name":"Wayne State University","Latitude":42.3591,"Longitude":-83.0665,"Cluster":5,"Rank":113},{"Name":"Virginia Commonwealth University","Latitude":37.5527,"Longitude":-77.4527,"Cluster":3,"Rank":114},{"Name":"Rutgers University–Newark","Latitude":40.7416,"Longitude":-74.1746,"Cluster":3,"Rank":115},{"Name":"University at Albany SUNY","Latitude":42.685,"Longitude":-73.8248,"Cluster":3,"Rank":116},{"Name":"Syracuse University","Latitude":43.0387,"Longitude":-76.1337,"Cluster":3,"Rank":117},{"Name":"University of Alaska Fairbanks","Latitude":64.8556,"Longitude":-147.8341,"Cluster":4,"Rank":118},{"Name":"American University","Latitude":38.938,"Longitude":-77.0889,"Cluster":3,"Rank":119},{"Name":"Clarkson University","Latitude":44.6648,"Longitude":-74.9933,"Cluster":3,"Rank":120},{"Name":"Auburn University","Latitude":32.5981,"Longitude":-85.4943,"Cluster":2,"Rank":121},{"Name":"Clark University","Latitude":42.252,"Longitude":-71.8245,"Cluster":3,"Rank":122},{"Name":"Louisiana State University","Latitude":30.4133,"Longitude":-91.18,"Cluster":2,"Rank":123},{"Name":"Texas Tech University","Latitude":33.5846,"Longitude":-101.8746,"Cluster":1,"Rank":124},{"Name":"University of Massachusetts Boston","Latitude":42.3142,"Longitude":-71.042,"Cluster":3,"Rank":125},{"Name":"Clemson University","Latitude":34.675,"Longitude":-82.8406,"Cluster":2,"Rank":126},{"Name":"Georgia State University","Latitude":33.7531,"Longitude":-84.3853,"Cluster":2,"Rank":127},{"Name":"Kansas State University ","Latitude":39.1974,"Longitude":-96.5847,"Cluster":1,"Rank":128},{"Name":"Michigan Technological University","Latitude":47.115,"Longitude":-88.5452,"Cluster":5,"Rank":129},{"Name":"Oklahoma State University ","Latitude":36.1266,"Longitude":-97.0735,"Cluster":1,"Rank":130},{"Name":"Wesleyan University","Latitude":41.5568,"Longitude":-72.6568,"Cluster":3,"Rank":131},{"Name":"Worcester Polytechnic Institute","Latitude":42.2746,"Longitude":-71.8068,"Cluster":3,"Rank":132},{"Name":"College of William and Mary","Latitude":37.271,"Longitude":-76.7162,"Cluster":3,"Rank":133},{"Name":"Loyola University Chicago","Latitude":41.9984,"Longitude":-87.6569,"Cluster":5,"Rank":134},{"Name":"Saint Louis University","Latitude":38.6348,"Longitude":-90.2336,"Cluster":5,"Rank":135},{"Name":"University of Alabama at Birmingham ","Latitude":33.502,"Longitude":-86.8057,"Cluster":2,"Rank":136},{"Name":"University of Denver","Latitude":39.6748,"Longitude":-104.9653,"Cluster":1,"Rank":137},{"Name":"University of Vermont","Latitude":44.4779,"Longitude":-73.1965,"Cluster":3,"Rank":138},{"Name":"West Virginia University","Latitude":39.648,"Longitude":-79.9697,"Cluster":3,"Rank":139},{"Name":"George Mason University","Latitude":38.8315,"Longitude":-77.3117,"Cluster":3,"Rank":140},{"Name":"Indiana University–Purdue University Indianapolis","Latitude":39.7739,"Longitude":-86.1763,"Cluster":5,"Rank":141},{"Name":"The University of Alabama","Latitude":33.2114,"Longitude":-87.5401,"Cluster":2,"Rank":142},{"Name":"Baylor University","Latitude":31.5501,"Longitude":-97.1135,"Cluster":1,"Rank":143},{"Name":"Binghamton University SUNY","Latitude":42.0894,"Longitude":-75.9695,"Cluster":3,"Rank":144},{"Name":"Brigham Young University","Latitude":40.2518,"Longitude":-111.6493,"Cluster":4,"Rank":145},{"Name":"Fordham University ","Latitude":40.8615,"Longitude":-73.8853,"Cluster":3,"Rank":146},{"Name":"Howard University","Latitude":38.9227,"Longitude":-77.0194,"Cluster":3,"Rank":147},{"Name":"Kent State University","Latitude":41.1439,"Longitude":-81.3365,"Cluster":5,"Rank":148},{"Name":"Mississippi State University","Latitude":33.4577,"Longitude":-88.7942,"Cluster":2,"Rank":149},{"Name":"Northern Arizona University","Latitude":35.1803,"Longitude":-111.654,"Cluster":4,"Rank":150},{"Name":"Ohio University","Latitude":39.3244,"Longitude":-82.1014,"Cluster":5,"Rank":151},{"Name":"Rochester Institute of Technology (RIT)","Latitude":43.0848,"Longitude":-77.6715,"Cluster":3,"Rank":152},{"Name":"San Diego State University","Latitude":32.7774,"Longitude":-117.0714,"Cluster":4,"Rank":153},{"Name":"Southern Methodist University","Latitude":32.8412,"Longitude":-96.7845,"Cluster":1,"Rank":154},{"Name":"The University of Texas at Arlington","Latitude":32.7357,"Longitude":-97.1081,"Cluster":1,"Rank":155},{"Name":"University of Arkansas Fayetteville ","Latitude":36.0687,"Longitude":-94.1748,"Cluster":1,"Rank":156},{"Name":"University of Idaho ","Latitude":46.7288,"Longitude":-117.0126,"Cluster":4,"Rank":157},{"Name":"University of Louisville College of Business","Latitude":38.219,"Longitude":-85.7601,"Cluster":5,"Rank":158},{"Name":"University of Mississippi","Latitude":34.3662,"Longitude":-89.538,"Cluster":2,"Rank":159},{"Name":"University of Missouri, Kansas City","Latitude":39.0344,"Longitude":-94.5834,"Cluster":1,"Rank":160},{"Name":"University of New Hampshire","Latitude":43.1389,"Longitude":-70.937,"Cluster":3,"Rank":161},{"Name":"University of North Carolina at Charlotte","Latitude":35.3071,"Longitude":-80.7352,"Cluster":2,"Rank":162},{"Name":"University of North Texas","Latitude":33.2075,"Longitude":-97.1526,"Cluster":1,"Rank":163},{"Name":"University of Rhode Island ","Latitude":41.4862,"Longitude":-71.5307,"Cluster":3,"Rank":164},{"Name":"University of San Francisco","Latitude":37.7766,"Longitude":-122.4507,"Cluster":4,"Rank":165},{"Name":"University of Texas El Paso ","Latitude":31.7732,"Longitude":-106.5047,"Cluster":1,"Rank":166},{"Name":"University of Texas at San Antonio","Latitude":29.4252,"Longitude":-98.4946,"Cluster":1,"Rank":167},{"Name":"University of Toledo","Latitude":41.6579,"Longitude":-83.6142,"Cluster":5,"Rank":168},{"Name":"University of Tulsa","Latitude":36.1521,"Longitude":-95.9461,"Cluster":1,"Rank":169},{"Name":"University of Wisconsin Milwaukee ","Latitude":43.0783,"Longitude":-87.882,"Cluster":5,"Rank":170},{"Name":"University of Wyoming","Latitude":41.3149,"Longitude":-105.5666,"Cluster":1,"Rank":171},{"Name":"Utah State University ","Latitude":41.7452,"Longitude":-111.8097,"Cluster":4,"Rank":172},{"Name":"Western Michigan University","Latitude":42.2837,"Longitude":-85.6103,"Cluster":5,"Rank":173},{"Name":"The City College of New York","Latitude":40.82,"Longitude":-73.9493,"Cluster":3,"Rank":174},{"Name":"California Polytechnic State University","Latitude":35.305,"Longitude":-120.6625,"Cluster":4,"Rank":175},{"Name":"Central Michigan University","Latitude":43.5822,"Longitude":-84.7763,"Cluster":5,"Rank":176},{"Name":"Cleveland State University","Latitude":41.5028,"Longitude":-81.6744,"Cluster":5,"Rank":177},{"Name":"Florida Atlantic University - Boca Raton","Latitude":26.3737,"Longitude":-80.1019,"Cluster":2,"Rank":178},{"Name":"Indiana State University","Latitude":39.4714,"Longitude":-87.4083,"Cluster":5,"Rank":179},{"Name":"Marquette University","Latitude":43.0387,"Longitude":-87.931,"Cluster":5,"Rank":180},{"Name":"Miami University","Latitude":39.5087,"Longitude":-84.7345,"Cluster":5,"Rank":181},{"Name":"Nova Southeastern University","Latitude":26.0786,"Longitude":-80.2457,"Cluster":2,"Rank":182},{"Name":"Portland State University","Latitude":45.5111,"Longitude":-122.6833,"Cluster":4,"Rank":183},{"Name":"Rutgers University–Camden","Latitude":39.9484,"Longitude":-75.1217,"Cluster":3,"Rank":184},{"Name":"San Francisco State University","Latitude":37.7241,"Longitude":-122.4799,"Cluster":4,"Rank":185},{"Name":"Seattle University","Latitude":47.6092,"Longitude":-122.3178,"Cluster":4,"Rank":186},{"Name":"University of Central Oklahoma","Latitude":35.6575,"Longitude":-97.4709,"Cluster":1,"Rank":187},{"Name":"University of Memphis","Latitude":35.1187,"Longitude":-89.9375,"Cluster":5,"Rank":188},{"Name":"University of Missouri Saint Louis","Latitude":38.7092,"Longitude":-90.3083,"Cluster":5,"Rank":189},{"Name":"University of Montana Missoula ","Latitude":46.8619,"Longitude":-113.9846,"Cluster":4,"Rank":190},{"Name":"University of North Carolina at Greensboro","Latitude":36.0689,"Longitude":-79.8102,"Cluster":2,"Rank":191},{"Name":"University of San Diego","Latitude":32.7722,"Longitude":-117.1889,"Cluster":4,"Rank":192},{"Name":"University of South Alabama (USA)","Latitude":30.6959,"Longitude":-88.1842,"Cluster":2,"Rank":193},{"Name":"University of the Pacific","Latitude":37.9799,"Longitude":-121.3129,"Cluster":4,"Rank":194},{"Name":"California State University - Los Angeles","Latitude":34.0664,"Longitude":-118.1685,"Cluster":4,"Rank":195},{"Name":"Humboldt State University","Latitude":40.8747,"Longitude":-124.0789,"Cluster":4,"Rank":196},{"Name":"Illinois State University","Latitude":40.5121,"Longitude":-88.9948,"Cluster":5,"Rank":197},{"Name":"Western Washington University ","Latitude":48.7343,"Longitude":-122.4866,"Cluster":4,"Rank":198}]
